{"category": "Government Building", "rating": 8.5, "name": "Cidade Administrativa Presidente Tancredo Neves", "weight": 6.851, "hours": {"start": "0:00:00", "end": "23:59:00"}, "location": {"city": "Belo Horizonte", "cc": "BR", "country": "Brasil", "postalCode": "31790-160", "state": "MG", "formattedAddress": ["Rod. Prefeito Am\u00e9rico Ren\u00ea Gianetti, 3755 (Serra Verde)", "Belo Horizonte, MG", "31790-160", "Brasil"], "crossStreet": "Serra Verde", "address": "Rod. Prefeito Am\u00e9rico Ren\u00ea Gianetti, 3755", "lat": -19.78322084110602, "lng": -43.95153522491455}, "lat": -19.78322084110602, "lng": -43.95153522491455, "checkins": 36915, "id": "4b5445bff964a52027b627e3"}
{"category": "Market", "rating": 9.4, "name": "Mercado Central", "weight": 7.141, "hours": {"start": "7:00:00", "end": "18:00:00"}, "location": {"city": "Belo Horizonte", "cc": "BR", "country": "Brasil", "postalCode": "30190-992", "state": "MG", "formattedAddress": ["Av. Augusto de Lima, 744 (Av. Amazonas)", "Belo Horizonte, MG", "30190-992", "Brasil"], "crossStreet": "Av. Amazonas", "address": "Av. Augusto de Lima, 744", "lat": -19.92255, "lng": -43.943059}, "lat": -19.92255, "lng": -43.943059, "checkins": 57600, "id": "4b5ec87ff964a520909829e3"}
{"category": "Bar", "rating": 8.7, "name": "Bol\u00e3o", "weight": 6.003, "hours": {"start": "0:00:00", "end": "23:59:00"}, "location": {"city": "Belo Horizonte", "cc": "BR", "country": "Brasil", "postalCode": "31010-230", "state": "MG", "formattedAddress": ["P\u00e7a. Duque de Caxias, 288 (R. M\u00e1rmore)", "Belo Horizonte, MG", "31010-230", "Brasil"], "crossStreet": "R. M\u00e1rmore", "address": "P\u00e7a. Duque de Caxias, 288", "lat": -19.916069836036407, "lng": -43.91850010036817}, "lat": -19.916069836036407, "lng": -43.91850010036817, "checkins": 10041, "id": "4b696fb3f964a52044a22be3"}
{"category": "Plaza", "rating": 9.7, "name": "Pra\u00e7a da Liberdade", "weight": 7.255, "hours": {"start": "0:00:00", "end": "23:59:00"}, "location": {"city": "Belo Horizonte", "cc": "BR", "country": "Brasil", "postalCode": "30140-010", "state": "MG", "formattedAddress": ["P\u00e7. da Liberdade", "Belo Horizonte, MG", "30140-010", "Brasil"], "address": "P\u00e7. da Liberdade", "lat": -19.93212199532181, "lng": -43.93798470497131}, "lat": -19.93212199532181, "lng": -43.93798470497131, "checkins": 68676, "id": "4b6973f2f964a520eda22be3"}
{"category": "Soccer Stadium", "rating": 9.3, "name": "Est\u00e1dio Governador Magalh\u00e3es Pinto (Mineir\u00e3o)", "weight": 7.16, "hours": {"start": "0:00:00", "end": "23:59:00"}, "location": {"city": "Belo Horizonte", "cc": "BR", "country": "Brasil", "postalCode": "31275-000", "state": "MG", "formattedAddress": ["Av. Ant\u00f4nio Abrah\u00e3o Caram, 1001", "Belo Horizonte, MG", "31275-000", "Brasil"], "address": "Av. Ant\u00f4nio Abrah\u00e3o Caram, 1001", "lat": -19.865882479849713, "lng": -43.97110462188721}, "lat": -19.865882479849713, "lng": -43.97110462188721, "checkins": 59375, "id": "4b69d39af964a5206db72be3"}
{"category": "Lake", "rating": 9.5, "name": "Lagoa da Pampulha", "weight": 6.868, "hours": {"start": "0:00:00", "end": "23:59:00"}, "location": {"city": "Belo Horizonte", "cc": "BR", "country": "Brasil", "postalCode": "31365-450", "state": "MG", "formattedAddress": ["Av. Otac\u00edlio Negr\u00e3o de Lima", "Belo Horizonte, MG", "31365-450", "Brasil"], "address": "Av. Otac\u00edlio Negr\u00e3o de Lima", "lat": -19.852138800578224, "lng": -43.978142738342285}, "lat": -19.852138800578224, "lng": -43.978142738342285, "checkins": 37882, "id": "4b69f01cf964a52025bd2be3"}
{"category": "Plaza", "rating": 8.5, "name": "Pra\u00e7a da Bandeira", "weight": 5.577, "hours": {"start": "0:00:00", "end": "23:59:00"}, "location": {"city": "Belo Horizonte", "cc": "BR", "country": "Brasil", "postalCode": "30130-050", "state": "MG", "formattedAddress": ["Av. Afonso Pena (Av. Agulhas Negras)", "Belo Horizonte, MG", "30130-050", "Brasil"], "crossStreet": "Av. Agulhas Negras", "address": "Av. Afonso Pena", "lat": -19.949146495994693, "lng": -43.92003536224365}, "lat": -19.949146495994693, "lng": -43.92003536224365, "checkins": 5224, "id": "4b7afdc6f964a5208f4a2fe3"}
{"category": "General Entertainment", "rating": 9.7, "name": "Pal\u00e1cio das Artes", "weight": 6.577, "hours": {"start": "0:00:00", "end": "23:59:00"}, "location": {"city": "Belo Horizonte", "cc": "BR", "country": "Brasil", "postalCode": "30130-004", "state": "MG", "formattedAddress": ["Av. Afonso Pena, 1537 (Av. Caranda\u00ed)", "Belo Horizonte, MG", "30130-004", "Brasil"], "crossStreet": "Av. Caranda\u00ed", "address": "Av. Afonso Pena, 1537", "lat": -19.925949152050915, "lng": -43.93404722213745}, "lat": -19.925949152050915, "lng": -43.93404722213745, "checkins": 24229, "id": "4b92eb03f964a520f42634e3"}
{"category": "Building", "name": "Edif\u00edcio Arcangelo Maletta", "weight": 6.216, "hours": {"start": "0:00:00", "end": "23:59:00"}, "location": {"city": "Belo Horizonte", "cc": "BR", "country": "Brasil", "postalCode": "30190-000", "state": "MG", "formattedAddress": ["R. da Bahia, 1148 (Av. Augusto de Lima)", "Belo Horizonte, MG", "30190-000", "Brasil"], "crossStreet": "Av. Augusto de Lima", "address": "R. da Bahia, 1148", "lat": -19.9246711877949, "lng": -43.9379064059973}, "lat": -19.9246711877949, "lng": -43.9379064059973, "checkins": 13933, "id": "4b982069f964a520462e35e3"}
{"category": "Church", "name": "Bas\u00edlica Nossa Senhora de Lourdes", "weight": 5.319, "hours": {"start": "0:00:00", "end": "23:59:00"}, "location": {"city": "Belo Horizonte", "cc": "BR", "country": "Brasil", "postalCode": "30160-011", "state": "MG", "formattedAddress": ["R. da Bahia, 1596", "Belo Horizonte, MG", "30160-011", "Brasil"], "address": "R. da Bahia, 1596", "lat": -19.928924653990325, "lng": -43.93856406211853}, "lat": -19.928924653990325, "lng": -43.93856406211853, "checkins": 3513, "id": "4ba54bcdf964a52084f738e3"}
{"category": "Park", "rating": 9.4, "name": "Parque Municipal Am\u00e9rico Renn\u00e9 Giannetti", "weight": 6.262, "hours": {"start": "0:00:00", "end": "23:59:00"}, "location": {"city": "Belo Horizonte", "cc": "BR", "country": "Brasil", "postalCode": "30130-000", "state": "MG", "formattedAddress": ["Av. Afonso Pena, 1377", "Belo Horizonte, MG", "30130-000", "Brasil"], "address": "Av. Afonso Pena, 1377", "lat": -19.92336374840946, "lng": -43.93428325653076}, "lat": -19.92336374840946, "lng": -43.93428325653076, "checkins": 14943, "id": "4baf5c0ef964a52022fa3be3"}
{"category": "Street", "rating": 6.6, "name": "Rua do Amendoim", "weight": 4.497, "hours": {"start": "0:00:00", "end": "23:59:00"}, "location": {"city": "Belo Horizonte", "cc": "BR", "country": "Brasil", "state": "MG", "formattedAddress": ["Belo Horizonte, MG", "Brasil"], "lat": -19.955499956541864, "lng": -43.91461730003357}, "lat": -19.955499956541864, "lng": -43.91461730003357, "checkins": 995, "id": "4bbe5b104e7bd13abfd49a7f"}
{"category": "Convention Center", "rating": 8.9, "name": "Expominas", "weight": 6.323, "hours": {"start": "0:00:00", "end": "23:59:00"}, "location": {"city": "Belo Horizonte", "cc": "BR", "country": "Brasil", "postalCode": "30510-000", "state": "MG", "formattedAddress": ["Av. Amazonas, 6030 (R. Cd. Pereira Carneiro)", "Belo Horizonte, MG", "30510-000", "Brasil"], "crossStreet": "R. Cd. Pereira Carneiro", "address": "Av. Amazonas, 6030", "lat": -19.93038716830597, "lng": -43.989644050598145}, "lat": -19.93038716830597, "lng": -43.989644050598145, "checkins": 16413, "id": "4bd316a277b29c74c0df8f82"}
{"category": "Plaza", "rating": 9.0, "name": "Pra\u00e7a da Esta\u00e7\u00e3o", "weight": 6.664, "hours": {"start": "0:00:00", "end": "23:59:00"}, "location": {"city": "Belo Horizonte", "cc": "BR", "country": "Brasil", "postalCode": "30120-010", "state": "MG", "formattedAddress": ["Av. dos Andradas", "Belo Horizonte, MG", "30120-010", "Brasil"], "address": "Av. dos Andradas", "lat": -19.91681048066746, "lng": -43.933939933776855}, "lat": -19.91681048066746, "lng": -43.933939933776855, "checkins": 27718, "id": "4bd8bbd12e6f0f47d8580808"}
{"category": "Plaza", "rating": 9.6, "name": "Pra\u00e7a do Papa (Governador Israel Pinheiro)", "weight": 6.496, "hours": {"start": "0:00:00", "end": "23:59:00"}, "location": {"city": "Belo Horizonte", "cc": "BR", "country": "Brasil", "postalCode": "30210-060", "state": "MG", "formattedAddress": ["P\u00e7. Gov. Israel Pinheiro", "Belo Horizonte, MG", "30210-060", "Brasil"], "address": "P\u00e7. Gov. Israel Pinheiro", "lat": -19.95675044880889, "lng": -43.91488552093506}, "lat": -19.95675044880889, "lng": -43.91488552093506, "checkins": 21422, "id": "4bdc73bbc79cc928b79b86e9"}
{"category": "Park", "rating": 9.6, "name": "Parque das Mangabeiras", "weight": 5.764, "hours": {"start": "8:00:00", "end": "17:00:00"}, "location": {"city": "Belo Horizonte", "cc": "BR", "country": "Brasil", "postalCode": "30210-090", "state": "MG", "formattedAddress": ["Av. Jos\u00e9 do Patroc\u00ednio Pontes, 580", "Belo Horizonte, MG", "30210-090", "Brasil"], "address": "Av. Jos\u00e9 do Patroc\u00ednio Pontes, 580", "lat": -19.951146006486066, "lng": -43.906901983827744}, "lat": -19.951146006486066, "lng": -43.906901983827744, "checkins": 6961, "id": "4bdd677ed33f2d7facde8a3c"}
{"category": "Zoo", "rating": 8.4, "name": "Funda\u00e7\u00e3o Zoo-Bot\u00e2nica de Belo Horizonte", "weight": 5.576, "hours": {"start": "8:30:00", "end": "16:00:00"}, "location": {"city": "Belo Horizonte", "cc": "BR", "country": "Brasil", "postalCode": "31365-450", "state": "MG", "formattedAddress": ["Av. Otac\u00edlio Negr\u00e3o de Lima, 8000", "Belo Horizonte, MG", "31365-450", "Brasil"], "address": "Av. Otac\u00edlio Negr\u00e3o de Lima, 8000", "lat": -19.861442654930535, "lng": -44.00996446609497}, "lat": -19.861442654930535, "lng": -44.00996446609497, "checkins": 5218, "id": "4bf010c1c8d920a1ac5e9430"}
{"category": "Monument / Landmark", "rating": 8.4, "name": "Pra\u00e7a Sete de Setembro (Pra\u00e7a 7)", "weight": 6.884, "hours": {"start": "0:00:00", "end": "23:59:00"}, "location": {"city": "Belo Horizonte", "cc": "BR", "country": "Brasil", "postalCode": "30120-010", "state": "MG", "formattedAddress": ["P\u00e7a. Sete de Setembro (entre a Av. Amazonas e a Av. Afonso Pena)", "Belo Horizonte, MG", "30120-010", "Brasil"], "crossStreet": "entre a Av. Amazonas e a Av. Afonso Pena", "address": "P\u00e7a. Sete de Setembro", "lat": -19.91910780676052, "lng": -43.93858551979065}, "lat": -19.91910780676052, "lng": -43.93858551979065, "checkins": 38820, "id": "4bf6913c94b2a59338a8adee"}
{"category": "Plaza", "rating": 8.9, "name": "Parque Juscelino Kubitschek", "weight": 5.841, "hours": {"start": "0:00:00", "end": "23:59:00"}, "location": {"city": "Belo Horizonte", "cc": "BR", "country": "Brasil", "postalCode": "30210-420", "state": "MG", "formattedAddress": ["Av. dos Bandeirantes", "Belo Horizonte, MG", "30210-420", "Brasil"], "address": "Av. dos Bandeirantes", "lat": -19.958192536457712, "lng": -43.93038868904114}, "lat": -19.958192536457712, "lng": -43.93038868904114, "checkins": 7837, "id": "4bfc4e1ef14fa593b4ccc9d4"}
{"category": "Capitol Building", "name": "Pal\u00e1cio da Liberdade", "weight": 5.272, "hours": {"start": "10:00:00", "end": "15:00:00"}, "location": {"city": "Belo Horizonte", "cc": "BR", "country": "Brasil", "postalCode": "30140-050", "state": "MG", "formattedAddress": ["Pra\u00e7a da Liberdade (Av. Jo\u00e3o Pinheiro)", "Belo Horizonte, MG", "30140-050", "Brasil"], "crossStreet": "Av. Jo\u00e3o Pinheiro", "address": "Pra\u00e7a da Liberdade", "lat": -19.93368, "lng": -43.938527}, "lat": -19.93368, "lng": -43.938527, "checkins": 3269, "id": "4c0594065753c92862b239f1"}
{"category": "Park", "rating": 9.4, "name": "Parque Ecol\u00f3gico da Pampulha", "weight": 5.605, "hours": {"start": "0:00:00", "end": "23:59:00"}, "location": {"city": "Belo Horizonte", "cc": "BR", "country": "Brasil", "state": "MG", "formattedAddress": ["Av. Otac\u00edlio Negr\u00e3o de Lima, 7111", "Belo Horizonte, MG", "Brasil"], "address": "Av. Otac\u00edlio Negr\u00e3o de Lima, 7111", "lat": -19.85544869415091, "lng": -43.996596336364746}, "lat": -19.85544869415091, "lng": -43.996596336364746, "checkins": 5452, "id": "4c1d0984b4e62d7f5a07dc93"}
{"category": "Church", "name": "Igreja Batista da Lagoinha", "weight": 6.356, "hours": {"start": "0:00:00", "end": "23:59:00"}, "location": {"city": "Belo Horizonte", "cc": "BR", "country": "Brasil", "postalCode": "31110-440", "state": "MG", "formattedAddress": ["R. Arariba, 535", "Belo Horizonte, MG", "31110-440", "Brasil"], "address": "R. Arariba, 535", "lat": -19.90031464895706, "lng": -43.945016115903854}, "lat": -19.90031464895706, "lng": -43.945016115903854, "checkins": 17259, "id": "4c30df227cc0c9b671fbed9a"}
{"category": "Scenic Lookout", "rating": 9.5, "name": "Mirante do Mangabeiras", "weight": 5.592, "hours": {"start": "10:00:00", "end": "22:00:00"}, "location": {"city": "Belo Horizonte", "cc": "BR", "country": "Brasil", "postalCode": "30210-200", "state": "MG", "formattedAddress": ["R. Pedro Jos\u00e9 Pardo, 1000", "Belo Horizonte, MG", "30210-200", "Brasil"], "address": "R. Pedro Jos\u00e9 Pardo, 1000", "lat": -19.95138536365654, "lng": -43.912503719329834}, "lat": -19.95138536365654, "lng": -43.912503719329834, "checkins": 5343, "id": "4c5c7c367f661b8d3ab4481c"}
{"category": "Church", "name": "Igreja S\u00e3o Jos\u00e9", "weight": 5.513, "hours": {"start": "0:00:00", "end": "23:59:00"}, "location": {"city": "Belo Horizonte", "cc": "BR", "country": "Brasil", "postalCode": "Brasil", "state": "MG", "formattedAddress": ["R. Tupis, 164 (at Rua Rio de Janeiro)", "Belo Horizonte, MG", "Brasil", "Brasil"], "crossStreet": "at Rua Rio de Janeiro", "address": "R. Tupis, 164", "lat": -19.920714470486022, "lng": -43.93807872672697}, "lat": -19.920714470486022, "lng": -43.93807872672697, "checkins": 4732, "id": "4c7196c60e8cbfb784f3fbda"}
{"category": "Arts & Crafts Store", "rating": 9.0, "name": "Feira de Artes e Artesanato de Belo Horizonte (Feira Hippie)", "weight": 6.178, "hours": {"start": "6:00:00", "end": "14:15:00"}, "location": {"city": "Belo Horizonte", "cc": "BR", "country": "Brasil", "postalCode": "30130-002", "state": "MG", "formattedAddress": ["Av. Afonso Pena, 1377 (R. da Bahia)", "Belo Horizonte, MG", "30130-002", "Brasil"], "crossStreet": "R. da Bahia", "address": "Av. Afonso Pena, 1377", "lat": -19.924718589112132, "lng": -43.935227394104004}, "lat": -19.924718589112132, "lng": -43.935227394104004, "checkins": 13137, "id": "4c95f40858d4b60c91cd3629"}
{"category": "Plaza", "rating": 9.3, "name": "Pra\u00e7a Diogo de Vasconcelos (Pra\u00e7a da Savassi)", "weight": 6.604, "hours": {"start": "0:00:00", "end": "23:59:00"}, "location": {"city": "Belo Horizonte", "cc": "BR", "country": "Brasil", "postalCode": "30140-140", "state": "MG", "formattedAddress": ["Av. Crist\u00f3v\u00e3o Colombo (Av. Get\u00falio Vargas)", "Belo Horizonte, MG", "30140-140", "Brasil"], "crossStreet": "Av. Get\u00falio Vargas", "address": "Av. Crist\u00f3v\u00e3o Colombo", "lat": -19.938092882228002, "lng": -43.93552780151367}, "lat": -19.938092882228002, "lng": -43.93552780151367, "checkins": 25289, "id": "4d7a846325c5cbff8f5b5533"}
{"category": "Plaza", "rating": 8.9, "name": "Pra\u00e7a da Assembl\u00e9ia (Pra\u00e7a Carlos Chagas)", "weight": 6.2, "hours": {"start": "0:00:00", "end": "23:59:00"}, "location": {"city": "Belo Horizonte", "cc": "BR", "country": "Brasil", "postalCode": "30180-112", "state": "MG", "formattedAddress": ["Av. Oleg\u00e1rio Maciel (R. Rodrigues Caldas)", "Belo Horizonte, MG", "30180-112", "Brasil"], "crossStreet": "R. Rodrigues Caldas", "address": "Av. Oleg\u00e1rio Maciel", "lat": -19.931708462704048, "lng": -43.9487886428833}, "lat": -19.931708462704048, "lng": -43.9487886428833, "checkins": 13591, "id": "4da8725c0cb65e9aae68261e"}
{"category": "Art Museum", "rating": 9.1, "name": "Museu de Arte da Pampulha", "weight": 5.395, "hours": {"start": "0:00:00", "end": "23:59:00"}, "location": {"city": "Belo Horizonte", "cc": "BR", "country": "Brasil", "postalCode": "31365-450", "state": "MG", "formattedAddress": ["Lagoa da Pampulha", "Belo Horizonte, MG", "31365-450", "Brasil"], "address": "Lagoa da Pampulha", "lat": -19.851743641372973, "lng": -43.97351717656373}, "lat": -19.851743641372973, "lng": -43.97351717656373, "checkins": 3953, "id": "4dbd9de543a1d8504ba9f20c"}
{"category": "Restaurant", "rating": 6.8, "name": "Bol\u00e3o", "weight": 4.557, "hours": {"start": "0:00:00", "end": "23:59:00"}, "location": {"city": "Belo Horizonte", "cc": "BR", "country": "Brasil", "state": "MG", "formattedAddress": ["R. Dom Jos\u00e9 Gaspar", "Belo Horizonte, MG", "Brasil"], "address": "R. Dom Jos\u00e9 Gaspar", "lat": -19.920833342029532, "lng": -43.98788627302767}, "lat": -19.920833342029532, "lng": -43.98788627302767, "checkins": 1091, "id": "4f8f582fe4b0b7a4425b0349"}
{"category": "Theater", "rating": 8.8, "name": "Sesc Palladium", "weight": 5.121, "hours": {"start": "0:00:00", "end": "23:59:00"}, "location": {"city": "Belo Horizonte", "cc": "BR", "country": "Brasil", "state": "MG", "formattedAddress": ["Av. Augusto De Lima, 420", "Belo Horizonte, MG", "Brasil"], "address": "Av. Augusto De Lima, 420", "lat": -19.9238263534225, "lng": -43.94043061049342}, "lat": -19.9238263534225, "lng": -43.94043061049342, "checkins": 2596, "id": "4fdf444fe4b0d60dd98c3219"}
{"category": "City", "name": "Belo Horizonte", "weight": 5.151, "hours": {"start": "0:00:00", "end": "23:59:00"}, "location": {"cc": "BR", "country": "Brasil", "state": "Minas Gerais", "formattedAddress": ["Minas Gerais", "Brasil"], "lat": -19.919130502461016, "lng": -43.93861770629883}, "lat": -19.919130502461016, "lng": -43.93861770629883, "checkins": 141663, "id": "4d2342ba0901721e70bea9a5"}
{"category": "Mall", "rating": 9.4, "name": "BH Shopping", "weight": 5.123, "hours": {"start": "10:00:00", "end": "22:00:00"}, "location": {"city": "Belo Horizonte", "cc": "BR", "country": "Brasil", "postalCode": "30320-900", "state": "MG", "formattedAddress": ["Rod. BR-356, 3049", "Belo Horizonte, MG", "30320-900", "Brasil"], "address": "Rod. BR-356, 3049", "lat": -19.974518469377436, "lng": -43.944926261901855}, "lat": -19.974518469377436, "lng": -43.944926261901855, "checkins": 132705, "id": "4b4ba7f6f964a52006a326e3"}
{"category": "Mall", "rating": 8.8, "name": "P\u00e1tio Savassi", "weight": 5.067, "hours": {"start": "10:00:00", "end": "22:00:00"}, "location": {"city": "Belo Horizonte", "cc": "BR", "country": "Brasil", "postalCode": "30110-929", "state": "MG", "formattedAddress": ["Av. do Contorno, 6061 (Av. Ns. do Carmo)", "Belo Horizonte, MG", "30110-929", "Brasil"], "crossStreet": "Av. Ns. do Carmo", "address": "Av. do Contorno, 6061", "lat": -19.94079584465452, "lng": -43.934197425842285}, "lat": -19.94079584465452, "lng": -43.934197425842285, "checkins": 116609, "id": "4b0fcfabf964a520246523e3"}
{"category": "Mall", "rating": 9.0, "name": "DiamondMall", "weight": 4.973, "hours": {"start": "0:00:00", "end": "23:59:00"}, "location": {"city": "Belo Horizonte", "cc": "BR", "country": "Brasil", "postalCode": "30180-111", "state": "MG", "formattedAddress": ["Av. Oleg\u00e1rio Maciel, 1600 (R. Gon\u00e7alves Dias)", "Belo Horizonte, MG", "30180-111", "Brasil"], "crossStreet": "R. Gon\u00e7alves Dias", "address": "Av. Oleg\u00e1rio Maciel, 1600", "lat": -19.928069833320993, "lng": -43.947316110134125}, "lat": -19.928069833320993, "lng": -43.947316110134125, "checkins": 94005, "id": "4b4604f9f964a520521426e3"}
{"category": "Neighborhood", "name": "Savassi", "weight": 4.889, "hours": {"start": "0:00:00", "end": "23:59:00"}, "location": {"city": "Belo Horizonte", "cc": "BR", "country": "Brasil", "state": "MG", "formattedAddress": ["Belo Horizonte, MG", "Brasil"], "lat": -19.938213911385617, "lng": -43.9357852935791}, "lat": -19.938213911385617, "lng": -43.9357852935791, "checkins": 77360, "id": "4b0fcf66f964a520206523e3"}
{"category": "Mall", "rating": 8.8, "name": "Boulevard Shopping", "weight": 4.866, "hours": {"start": "10:00:00", "end": "22:00:00"}, "location": {"city": "Belo Horizonte", "cc": "BR", "country": "Brasil", "postalCode": "30260-070", "state": "MG", "formattedAddress": ["Av. dos Andradas, 3000", "Belo Horizonte, MG", "30260-070", "Brasil"], "address": "Av. dos Andradas, 3000", "lat": -19.920794844951466, "lng": -43.920185565948486}, "lat": -19.920794844951466, "lng": -43.920185565948486, "checkins": 73416, "id": "4ccc7075ee23a14301171fa8"}
{"category": "Mall", "rating": 6.9, "name": "Shopping Cidade", "weight": 4.797, "hours": {"start": "9:00:00", "end": "22:00:00"}, "location": {"city": "Belo Horizonte", "cc": "BR", "country": "Brasil", "postalCode": "30190-060", "state": "MG", "formattedAddress": ["R. dos Tupis, 337 (R. S\u00e3o Paulo)", "Belo Horizonte, MG", "30190-060", "Brasil"], "crossStreet": "R. S\u00e3o Paulo", "address": "R. dos Tupis, 337", "lat": -19.922075872390163, "lng": -43.940162658691406}, "lat": -19.922075872390163, "lng": -43.940162658691406, "checkins": 62678, "id": "4bace766f964a520c1173be3"}
{"category": "University", "name": "Universidade Federal de Minas Gerais (UFMG)", "weight": 4.791, "hours": {"start": "0:00:00", "end": "23:59:00"}, "location": {"city": "Belo Horizonte", "cc": "BR", "country": "Brasil", "postalCode": "31270-901", "state": "MG", "formattedAddress": ["Av. Ant\u00f4nio Carlos, 6627 (Campus Pampulha)", "Belo Horizonte, MG", "31270-901", "Brasil"], "crossStreet": "Campus Pampulha", "address": "Av. Ant\u00f4nio Carlos, 6627", "lat": -19.867567562674775, "lng": -43.96435618400574}, "lat": -19.867567562674775, "lng": -43.96435618400574, "checkins": 61845, "id": "4ba3875ef964a520a54438e3"}
{"category": "Bus Station", "name": "Terminal Rodovi\u00e1rio Governador Israel Pinheiro", "weight": 4.737, "hours": {"start": "0:00:00", "end": "23:59:00"}, "location": {"city": "Belo Horizonte", "cc": "BR", "country": "Brasil", "postalCode": "30111-050", "state": "MG", "formattedAddress": ["P\u00e7a. Rio Branco, 100 (R. Saturino de Brito)", "Belo Horizonte, MG", "30111-050", "Brasil"], "crossStreet": "R. Saturino de Brito", "address": "P\u00e7a. Rio Branco, 100", "lat": -19.91402640958486, "lng": -43.94185781478882}, "lat": -19.91402640958486, "lng": -43.94185781478882, "checkins": 54525, "id": "4b5a3ad1f964a520fdb528e3"}
{"category": "University", "name": "PUC Minas", "weight": 4.727, "hours": {"start": "7:00:00", "end": "22:30:00"}, "location": {"city": "Belo Horizonte", "cc": "BR", "country": "Brasil", "postalCode": "30535-901", "state": "MG", "formattedAddress": ["Av. D. Jos\u00e9 Gaspar, 500", "Belo Horizonte, MG", "30535-901", "Brasil"], "address": "Av. D. Jos\u00e9 Gaspar, 500", "lat": -19.923626708647017, "lng": -43.992473781108856}, "lat": -19.923626708647017, "lng": -43.992473781108856, "checkins": 53296, "id": "4bc5e72651b376b093981a6f"}
{"category": "Mall", "rating": 7.2, "name": "Minas Shopping", "weight": 4.726, "hours": {"start": "10:00:00", "end": "23:00:00"}, "location": {"city": "Belo Horizonte", "cc": "BR", "country": "Brasil", "postalCode": "31910-900", "state": "MG", "formattedAddress": ["Av. Cristiano Machado, 4000", "Belo Horizonte, MG", "31910-900", "Brasil"], "address": "Av. Cristiano Machado, 4000", "lat": -19.874842475165806, "lng": -43.925979137420654}, "lat": -19.874842475165806, "lng": -43.925979137420654, "checkins": 53160, "id": "4b69fcbcf964a520f1bf2be3"}
{"category": "Neighborhood", "name": "Centro", "weight": 4.719, "hours": {"start": "0:00:00", "end": "23:59:00"}, "location": {"city": "Belo Horizonte", "cc": "BR", "country": "Brasil", "state": "MG", "formattedAddress": ["Belo Horizonte, MG", "Brasil"], "lat": -19.919211198258633, "lng": -43.93848896026611}, "lat": -19.919211198258633, "lng": -43.93848896026611, "checkins": 52404, "id": "4ee94d2d02d5d0dbe4729dc8"}
{"category": "Mall", "rating": 7.2, "name": "Shopping Del Rey", "weight": 4.696, "hours": {"start": "10:00:00", "end": "22:00:00"}, "location": {"city": "Belo Horizonte", "cc": "BR", "country": "Brasil", "postalCode": "31250-010", "state": "MG", "formattedAddress": ["Av. Pres. Carlos Luz, 3001 (Av. Del Rey)", "Belo Horizonte, MG", "31250-010", "Brasil"], "crossStreet": "Av. Del Rey", "address": "Av. Pres. Carlos Luz, 3001", "lat": -19.889895741193754, "lng": -43.96822929382324}, "lat": -19.889895741193754, "lng": -43.96822929382324, "checkins": 49679, "id": "4babc507f964a52005c83ae3"}
{"category": "Airport", "rating": 7.6, "name": "Aeroporto de Belo Horizonte / Pampulha - Carlos Drummond de Andrade (PLU)", "weight": 4.691, "hours": {"start": "0:00:00", "end": "23:59:00"}, "location": {"city": "Belo Horizonte", "cc": "BR", "country": "Brasil", "postalCode": "31270-705", "state": "MG", "formattedAddress": ["P\u00e7a. Bagatelle, 204", "Belo Horizonte, MG", "31270-705", "Brasil"], "address": "P\u00e7a. Bagatelle, 204", "lat": -19.851533324772028, "lng": -43.95546197891235}, "lat": -19.851533324772028, "lng": -43.95546197891235, "checkins": 49076, "id": "4b5e072ff964a520dd7929e3"}
{"category": "Mall", "rating": 7.7, "name": "Shopping Esta\u00e7\u00e3o BH", "weight": 4.592, "hours": {"start": "10:00:00", "end": "23:00:00"}, "location": {"city": "Belo Horizonte", "cc": "BR", "country": "Brasil", "postalCode": "31744-007", "state": "MG", "formattedAddress": ["Av. Cristiano Machado, 11833 (Av. Vilarinho)", "Belo Horizonte, MG", "31744-007", "Brasil"], "crossStreet": "Av. Vilarinho", "address": "Av. Cristiano Machado, 11833", "lat": -19.821276776753624, "lng": -43.94705057144165}, "lat": -19.821276776753624, "lng": -43.94705057144165, "checkins": 39044, "id": "4ddfbd70d4c0935ddd633b1d"}
{"category": "Neighborhood", "name": "Buritis", "weight": 4.558, "hours": {"start": "0:00:00", "end": "23:59:00"}, "location": {"city": "Belo Horizonte", "cc": "BR", "country": "Brasil", "state": "MG", "formattedAddress": ["Belo Horizonte, MG", "Brasil"], "lat": -19.975567143548236, "lng": -43.966898918151855}, "lat": -19.975567143548236, "lng": -43.966898918151855, "checkins": 36141, "id": "4e19ad42c65b6bfb591a4407"}
{"category": "University", "name": "Universidade FUMEC", "weight": 4.553, "hours": {"start": "0:00:00", "end": "23:59:00"}, "location": {"city": "Belo Horizonte", "cc": "BR", "country": "Brasil", "postalCode": "30310-190", "state": "MG", "formattedAddress": ["R. Cobre, 200 (R. Oliveira)", "Belo Horizonte, MG", "30310-190", "Brasil"], "crossStreet": "R. Oliveira", "address": "R. Cobre, 200", "lat": -19.943495981002883, "lng": -43.92522284792294}, "lat": -19.943495981002883, "lng": -43.92522284792294, "checkins": 35749, "id": "4ba2173ff964a5201fdb37e3"}
{"category": "Soccer Stadium", "rating": 9.3, "name": "Est\u00e1dio Raimundo Sampaio (Arena Independ\u00eancia)", "weight": 4.548, "hours": {"start": "0:00:00", "end": "23:59:00"}, "location": {"city": "Belo Horizonte", "cc": "BR", "country": "Brasil", "postalCode": "30280-280", "state": "MG", "formattedAddress": ["R. Pitangui, 3388 (R. Ism\u00eania Tunes)", "Belo Horizonte, MG", "30280-280", "Brasil"], "crossStreet": "R. Ism\u00eania Tunes", "address": "R. Pitangui, 3388", "lat": -19.908448032738598, "lng": -43.91785740852356}, "lat": -19.908448032738598, "lng": -43.91785740852356, "checkins": 35283, "id": "4d7f65ed1b281456c32282ed"}
{"category": "Multiplex", "rating": 8.5, "name": "Cinemark", "weight": 4.537, "hours": {"start": "0:00:00", "end": "23:59:00"}, "location": {"city": "Belo Horizonte", "cc": "BR", "country": "Brasil", "postalCode": "30110-390", "state": "MG", "formattedAddress": ["P\u00e1tio Savassi (L3)", "Belo Horizonte, MG", "30110-390", "Brasil"], "crossStreet": "L3", "address": "P\u00e1tio Savassi", "lat": -19.94150183468383, "lng": -43.934197425842285}, "lat": -19.94150183468383, "lng": -43.934197425842285, "checkins": 34433, "id": "4b5205acf964a520ed6127e3"}
{"category": "University", "name": "UniBH - Campus Estoril", "weight": 4.534, "hours": {"start": "0:00:00", "end": "23:59:00"}, "location": {"city": "Belo Horizonte", "cc": "BR", "country": "Brasil", "postalCode": "30455-610", "state": "MG", "formattedAddress": ["Av. Prof. M\u00e1rio Werneck, 1685", "Belo Horizonte, MG", "30455-610", "Brasil"], "address": "Av. Prof. M\u00e1rio Werneck, 1685", "lat": -19.970686715979976, "lng": -43.96374464035034}, "lat": -19.970686715979976, "lng": -43.96374464035034, "checkins": 34206, "id": "4b4c9d4ff964a520a4b726e3"}
{"category": "Neighborhood", "name": "Lourdes", "weight": 4.476, "hours": {"start": "0:00:00", "end": "23:59:00"}, "location": {"city": "Belo Horizonte", "cc": "BR", "country": "Brasil", "state": "MG", "formattedAddress": ["Belo Horizonte, MG", "Brasil"], "lat": -19.931032687560204, "lng": -43.9427375793457}, "lat": -19.931032687560204, "lng": -43.9427375793457, "checkins": 29954, "id": "4cb58c28589f236a6cc9303d"}
{"category": "Neighborhood", "name": "Pampulha", "weight": 4.444, "hours": {"start": "0:00:00", "end": "23:59:00"}, "location": {"city": "Belo Horizonte", "cc": "BR", "country": "Brasil", "state": "MG", "formattedAddress": ["Belo Horizonte, MG", "Brasil"], "lat": -19.861160429557458, "lng": -43.966703390953555}, "lat": -19.861160429557458, "lng": -43.966703390953555, "checkins": 27773, "id": "5040c8bbe4b0b17447b54fbc"}
{"category": "Australian Restaurant", "rating": 9.4, "name": "Outback Steakhouse", "weight": 4.434, "hours": {"start": "12:00:00", "end": "15:00:00"}, "location": {"city": "Belo Horizonte", "cc": "BR", "country": "Brasil", "postalCode": "30330-000", "state": "MG", "formattedAddress": ["P\u00e1tio Savassi (L1, Loja 148)", "Belo Horizonte, MG", "30330-000", "Brasil"], "crossStreet": "L1, Loja 148", "address": "P\u00e1tio Savassi", "lat": -19.940493276532955, "lng": -43.93389701843262}, "lat": -19.940493276532955, "lng": -43.93389701843262, "checkins": 27177, "id": "4b78847ef964a520a5d32ee3"}
{"category": "Neighborhood", "name": "Floresta", "weight": 4.432, "hours": {"start": "0:00:00", "end": "23:59:00"}, "location": {"city": "Belo Horizonte", "cc": "BR", "country": "Brasil", "state": "MG", "formattedAddress": ["Belo Horizonte, MG", "Brasil"], "lat": -19.912069460724116, "lng": -43.93136501312256}, "lat": -19.912069460724116, "lng": -43.93136501312256, "checkins": 27051, "id": "4d0387a137036dcb7d8d0afb"}
{"category": "University", "name": "PUC Minas", "weight": 4.414, "hours": {"start": "0:00:00", "end": "23:59:00"}, "location": {"city": "Belo Horizonte", "cc": "BR", "country": "Brasil", "postalCode": "31980-110", "state": "MG", "formattedAddress": ["R. Walter Ianni 255 (Campi Belo Horizonte, Unidade S\u00e3o Gabriel)", "Belo Horizonte, MG", "31980-110", "Brasil"], "crossStreet": "Campi Belo Horizonte, Unidade S\u00e3o Gabriel", "address": "R. Walter Ianni 255", "lat": -19.85863742875268, "lng": -43.91917705535889}, "lat": -19.85863742875268, "lng": -43.91917705535889, "checkins": 25950, "id": "4ba72046f964a520008239e3"}
{"category": "Neighborhood", "name": "Santa Efig\u00eania", "weight": 4.386, "hours": {"start": "0:00:00", "end": "23:59:00"}, "location": {"city": "Belo Horizonte", "cc": "BR", "country": "Brasil", "state": "MG", "formattedAddress": ["Belo Horizonte, MG", "Brasil"], "lat": -19.92344766979096, "lng": -43.91501426696777}, "lat": -19.92344766979096, "lng": -43.91501426696777, "checkins": 24324, "id": "4d8bcd29cdfbb60c02125c07"}
{"category": "Neighborhood", "name": "Sagrada Fam\u00edlia", "weight": 4.375, "hours": {"start": "0:00:00", "end": "23:59:00"}, "location": {"city": "Belo Horizonte", "cc": "BR", "country": "Brasil", "state": "MG", "formattedAddress": ["Belo Horizonte, MG", "Brasil"], "lat": -19.903071219345936, "lng": -43.923940658569336}, "lat": -19.903071219345936, "lng": -43.923940658569336, "checkins": 23708, "id": "4d263437a813224be3ebefb1"}
{"category": "Neighborhood", "name": "Prado", "weight": 4.359, "hours": {"start": "0:00:00", "end": "23:59:00"}, "location": {"city": "Belo Horizonte", "cc": "BR", "country": "Brasil", "state": "MG", "formattedAddress": ["Belo Horizonte, MG", "Brasil"], "lat": -19.923488016593115, "lng": -43.961448669433594}, "lat": -19.923488016593115, "lng": -43.961448669433594, "checkins": 22882, "id": "4da89d6b93a021ab13ce2495"}
{"category": "Neighborhood", "name": "Cidade Nova", "weight": 4.341, "hours": {"start": "0:00:00", "end": "23:59:00"}, "location": {"city": "Belo Horizonte", "cc": "BR", "country": "Brasil", "state": "MG", "formattedAddress": ["Belo Horizonte, MG", "Brasil"], "lat": -19.888542, "lng": -43.923817}, "lat": -19.888542, "lng": -43.923817, "checkins": 21906, "id": "4e092aa7ae60a90eabd38b71"}
{"category": "Neighborhood", "name": "Gutierrez", "weight": 4.318, "hours": {"start": "0:00:00", "end": "23:59:00"}, "location": {"city": "Belo Horizonte", "cc": "BR", "country": "Brasil", "postalCode": "30331-039", "state": "MG", "formattedAddress": ["Belo Horizonte, MG", "30331-039", "Brasil"], "lat": -19.93490574770351, "lng": -43.957157135009766}, "lat": -19.93490574770351, "lng": -43.957157135009766, "checkins": 20814, "id": "4d434a2c1925721e2ac591dd"}
{"category": "Neighborhood", "name": "Barreiro", "weight": 4.318, "hours": {"start": "0:00:00", "end": "23:59:00"}, "location": {"city": "Belo Horizonte", "cc": "BR", "country": "Brasil", "state": "MG", "formattedAddress": ["Belo Horizonte, MG", "Brasil"], "lat": -19.98028609097678, "lng": -44.01938438415527}, "lat": -19.98028609097678, "lng": -44.01938438415527, "checkins": 20787, "id": "4e49d434b0fb37342ee86371"}
{"category": "Neighborhood", "name": "Belvedere", "weight": 4.298, "hours": {"start": "0:00:00", "end": "23:59:00"}, "location": {"city": "Belo Horizonte", "cc": "BR", "country": "Brasil", "state": "MG", "formattedAddress": ["Belo Horizonte, MG", "Brasil"], "lat": -19.97276394122264, "lng": -43.93831729888916}, "lat": -19.97276394122264, "lng": -43.93831729888916, "checkins": 19853, "id": "4d8ac9696daeb60c87776ce0"}
{"category": "Neighborhood", "name": "Cora\u00e7\u00e3o Eucar\u00edstico", "weight": 4.293, "hours": {"start": "0:00:00", "end": "23:59:00"}, "location": {"city": "Belo Horizonte", "cc": "BR", "country": "Brasil", "state": "MG", "formattedAddress": ["Belo Horizonte, MG", "Brasil"], "lat": -19.925807940397025, "lng": -43.98983716964722}, "lat": -19.925807940397025, "lng": -43.98983716964722, "checkins": 19620, "id": "4dc625cd1f6ef43b8a28fc7d"}
{"category": "Fast Food Restaurant", "rating": 6.7, "name": "McDonald's", "weight": 4.289, "hours": {"start": "0:00:00", "end": "23:59:00"}, "location": {"city": "Belo Horizonte", "cc": "BR", "country": "Brasil", "postalCode": "30112-021", "state": "MG", "formattedAddress": ["Av. Get\u00falio Vargas, 1300 (R. Pernambuco)", "Belo Horizonte, MG", "30112-021", "Brasil"], "crossStreet": "R. Pernambuco", "address": "Av. Get\u00falio Vargas, 1300", "lat": -19.93791396873513, "lng": -43.93523302744904}, "lat": -19.93791396873513, "lng": -43.93523302744904, "checkins": 19473, "id": "4b6b3ed9f964a520d4fb2be3"}
{"category": "Neighborhood", "name": "Funcion\u00e1rios", "weight": 4.284, "hours": {"start": "0:00:00", "end": "23:59:00"}, "location": {"city": "Belo Horizonte", "cc": "BR", "country": "Brasil", "state": "MG", "formattedAddress": ["Belo Horizonte, MG", "Brasil"], "lat": -19.932751919815455, "lng": -43.929760058656946}, "lat": -19.932751919815455, "lng": -43.929760058656946, "checkins": 19253, "id": "4d8c7389788fb60c6bb26412"}
{"category": "Neighborhood", "name": "Padre Eust\u00e1quio", "weight": 4.281, "hours": {"start": "0:00:00", "end": "23:59:00"}, "location": {"city": "Belo Horizonte", "cc": "BR", "country": "Brasil", "state": "MG", "formattedAddress": ["Belo Horizonte, MG", "Brasil"], "lat": -19.915539497775193, "lng": -43.97700548171997}, "lat": -19.915539497775193, "lng": -43.97700548171997, "checkins": 19118, "id": "4e02892762e189f23d6667cb"}
{"category": "University", "name": "Centro Universit\u00e1rio UNA", "weight": 4.277, "hours": {"start": "0:00:00", "end": "23:59:00"}, "location": {"city": "Belo Horizonte", "cc": "BR", "country": "Brasil", "postalCode": "30160-011", "state": "MG", "formattedAddress": ["R. da Bahia, 1764 (Campus Liberdade)", "Belo Horizonte, MG", "30160-011", "Brasil"], "crossStreet": "Campus Liberdade", "address": "R. da Bahia, 1764", "lat": -19.930437599592665, "lng": -43.939164876937866}, "lat": -19.930437599592665, "lng": -43.939164876937866, "checkins": 18929, "id": "4bc4dedcb492d13a42b1aa60"}
{"category": "Multiplex", "rating": 8.0, "name": "Cinemark", "weight": 4.27, "hours": {"start": "0:00:00", "end": "23:59:00"}, "location": {"city": "Belo Horizonte", "cc": "BR", "country": "Brasil", "postalCode": "30320-900", "state": "MG", "formattedAddress": ["BH Shopping (N\u00edvel OP, Loja 47)", "Belo Horizonte, MG", "30320-900", "Brasil"], "crossStreet": "N\u00edvel OP, Loja 47", "address": "BH Shopping", "lat": -19.974094964369343, "lng": -43.94406795501709}, "lat": -19.974094964369343, "lng": -43.94406795501709, "checkins": 18607, "id": "4bd2350d9854d13a603efb4d"}
{"category": "Courthouse", "name": "F\u00f3rum Lafayette", "weight": 4.263, "hours": {"start": "9:00:00", "end": "18:00:00"}, "location": {"city": "Belo Horizonte", "cc": "BR", "country": "Brasil", "postalCode": "30190-002", "state": "MG", "formattedAddress": ["Av. Augusto de Lima, 1549 (R. Ouro Preto)", "Belo Horizonte, MG", "30190-002", "Brasil"], "crossStreet": "R. Ouro Preto", "address": "Av. Augusto de Lima, 1549", "lat": -19.921657609167113, "lng": -43.950516799776025}, "lat": -19.921657609167113, "lng": -43.950516799776025, "checkins": 18309, "id": "4c8e835a1664b1f76301a12f"}
{"category": "College Science Building", "name": "ICEx - Instituto de Ci\u00eancias Exatas", "weight": 4.26, "hours": {"start": "7:00:00", "end": "22:30:00"}, "location": {"city": "Belo Horizonte", "cc": "BR", "country": "Brasil", "postalCode": "31270-901", "state": "MG", "formattedAddress": ["Av. Ant\u00f4nio Carlos, 6627", "Belo Horizonte, MG", "31270-901", "Brasil"], "address": "Av. Ant\u00f4nio Carlos, 6627", "lat": -19.868859111040305, "lng": -43.9643132686615}, "lat": -19.868859111040305, "lng": -43.9643132686615, "checkins": 18193, "id": "4c35fdaa16adc928cd9fc79c"}
{"category": "Plaza", "rating": 9.2, "name": "Pra\u00e7a Lagoa Seca", "weight": 4.252, "hours": {"start": "0:00:00", "end": "23:59:00"}, "location": {"city": "Belo Horizonte", "cc": "BR", "country": "Brasil", "postalCode": "30320-640", "state": "MG", "formattedAddress": ["R. Juvenal Melo Senra (R. Vicente Guimar\u00e3es)", "Belo Horizonte, MG", "30320-640", "Brasil"], "crossStreet": "R. Vicente Guimar\u00e3es", "address": "R. Juvenal Melo Senra", "lat": -19.973167282756865, "lng": -43.94280195236206}, "lat": -19.973167282756865, "lng": -43.94280195236206, "checkins": 17871, "id": "4c85794f2f1c236a6a4f5543"}
{"category": "Neighborhood", "name": "Santa Tereza", "weight": 4.251, "hours": {"start": "0:00:00", "end": "23:59:00"}, "location": {"city": "Belo Horizonte", "cc": "BR", "country": "Brasil", "state": "MG", "formattedAddress": ["Belo Horizonte, MG", "Brasil"], "lat": -19.916185077663698, "lng": -43.9178466796875}, "lat": -19.916185077663698, "lng": -43.9178466796875, "checkins": 17840, "id": "4d614640196ba09317a52356"}
{"category": "Neighborhood", "name": "Castelo", "weight": 4.251, "hours": {"start": "0:00:00", "end": "23:59:00"}, "location": {"city": "Belo Horizonte", "cc": "BR", "country": "Brasil", "state": "MG", "formattedAddress": ["Belo Horizonte, MG", "Brasil"], "lat": -19.88900792069501, "lng": -43.99696111679077}, "lat": -19.88900792069501, "lng": -43.99696111679077, "checkins": 17837, "id": "4ce2f8474df7a35d8930e079"}
{"category": "Neighborhood", "name": "Barro Preto", "weight": 4.251, "hours": {"start": "0:00:00", "end": "23:59:00"}, "location": {"city": "Belo Horizonte", "cc": "BR", "country": "Brasil", "state": "MG", "formattedAddress": ["Belo Horizonte, MG", "Brasil"], "lat": -19.921470663870174, "lng": -43.95329475402832}, "lat": -19.921470663870174, "lng": -43.95329475402832, "checkins": 17834, "id": "4de4d911b0fb267148bd577f"}
{"category": "Mall", "rating": 7.0, "name": "Via Shopping", "weight": 4.245, "hours": {"start": "10:00:00", "end": "23:00:00"}, "location": {"city": "Belo Horizonte", "cc": "BR", "country": "Brasil", "postalCode": "30640-070", "state": "MG", "formattedAddress": ["Av. Afonso Vaz de Melo, 640 (Rua L\u00facio dos Santos)", "Belo Horizonte, MG", "30640-070", "Brasil"], "crossStreet": "Rua L\u00facio dos Santos", "address": "Av. Afonso Vaz de Melo, 640", "lat": -19.97409496436934, "lng": -44.020832777023315}, "lat": -19.97409496436934, "lng": -44.020832777023315, "checkins": 17580, "id": "4c11947b8559ef3ba4c36a53"}
{"category": "Athletics & Sports", "rating": 9.6, "name": "Minas T\u00eanis Clube I", "weight": 4.241, "hours": {"start": "0:00:00", "end": "23:59:00"}, "location": {"city": "Belo Horizonte", "cc": "BR", "country": "Brasil", "postalCode": "30160-012", "state": "MG", "formattedAddress": ["R. da Bahia,  2244 (R. Ant\u00f4nio Aleixo)", "Belo Horizonte, MG", "30160-012", "Brasil"], "crossStreet": "R. Ant\u00f4nio Aleixo", "address": "R. da Bahia,  2244", "lat": -19.9354590573486, "lng": -43.941077940621376}, "lat": -19.9354590573486, "lng": -43.941077940621376, "checkins": 17406, "id": "4b538167f964a52020a027e3"}
{"category": "Music Venue", "rating": 8.0, "name": "Chevrolet Hall", "weight": 4.239, "hours": {"start": "0:00:00", "end": "23:59:00"}, "location": {"city": "Belo Horizonte", "cc": "BR", "country": "Brasil", "postalCode": "30330-000", "state": "MG", "formattedAddress": ["Av. Nossa Senhora do Carmo, 230", "Belo Horizonte, MG", "30330-000", "Brasil"], "address": "Av. Nossa Senhora do Carmo, 230", "lat": -19.942227992564156, "lng": -43.93411159515381}, "lat": -19.942227992564156, "lng": -43.93411159515381, "checkins": 17352, "id": "4bba08c898c7ef3be1973202"}
{"category": "Neighborhood", "name": "Santo Ant\u00f4nio", "weight": 4.226, "hours": {"start": "0:00:00", "end": "23:59:00"}, "location": {"city": "Belo Horizonte", "cc": "BR", "country": "Brasil", "state": "MG", "formattedAddress": ["Belo Horizonte, MG", "Brasil"], "lat": -19.94337368846964, "lng": -43.944537982884576}, "lat": -19.94337368846964, "lng": -43.944537982884576, "checkins": 16843, "id": "4e31b04ab0fbb985a506887b"}
{"category": "Neighborhood", "name": "Serra", "weight": 4.224, "hours": {"start": "0:00:00", "end": "23:59:00"}, "location": {"city": "Belo Horizonte", "cc": "BR", "country": "Brasil", "state": "MG", "formattedAddress": ["Belo Horizonte, MG", "Brasil"], "lat": -19.93865768417006, "lng": -43.92153739929199}, "lat": -19.93865768417006, "lng": -43.92153739929199, "checkins": 16761, "id": "4cdbce75fc973704e33bd105"}
{"category": "Metro Station", "name": "Esta\u00e7\u00e3o Central", "weight": 4.218, "hours": {"start": "5:15:00", "end": "23:00:00"}, "location": {"city": "Belo Horizonte", "cc": "BR", "country": "Brasil", "postalCode": "30120-000", "state": "MG", "formattedAddress": ["P\u00e7a. da Esta\u00e7\u00e3o (R. Aar\u00e3o Reis)", "Belo Horizonte, MG", "30120-000", "Brasil"], "crossStreet": "R. Aar\u00e3o Reis", "address": "P\u00e7a. da Esta\u00e7\u00e3o", "lat": -19.91746109890924, "lng": -43.93327742815018}, "lat": -19.91746109890924, "lng": -43.93327742815018, "checkins": 16533, "id": "4c324b29ed37a59378a06b03"}
{"category": "Bus Station", "name": "Conex\u00e3o Aeroporto", "weight": 4.215, "hours": {"start": "3:45:00", "end": "23:45:00"}, "location": {"city": "Belo Horizonte", "cc": "BR", "country": "Brasil", "postalCode": "30170-000", "state": "MG", "formattedAddress": ["Av. \u00c1lvares Cabral, 387", "Belo Horizonte, MG", "30170-000", "Brasil"], "address": "Av. \u00c1lvares Cabral, 387", "lat": -19.926463564866033, "lng": -43.938660621643066}, "lat": -19.926463564866033, "lng": -43.938660621643066, "checkins": 16391, "id": "4bbb9ae8e45295217ce954a4"}
{"category": "Supermarket", "rating": 9.5, "name": "Verdemar", "weight": 4.21, "hours": {"start": "9:00:00", "end": "17:00:00"}, "location": {"city": "Belo Horizonte", "cc": "BR", "country": "Brasil", "postalCode": "30320-000", "state": "MG", "formattedAddress": ["Av. Ns. do Carmo, 1900", "Belo Horizonte, MG", "30320-000", "Brasil"], "address": "Av. Ns. do Carmo, 1900", "lat": -19.954410810041594, "lng": -43.939754962921135}, "lat": -19.954410810041594, "lng": -43.939754962921135, "checkins": 16221, "id": "4b9bb91df964a5200c1e36e3"}
{"category": "University", "name": "Centro Universit\u00e1rio UNA", "weight": 4.209, "hours": {"start": "0:00:00", "end": "23:59:00"}, "location": {"city": "Belo Horizonte", "cc": "BR", "country": "Brasil", "postalCode": "30140-071", "state": "MG", "formattedAddress": ["R. Aimor\u00e9s, 1451 (Campus Aimor\u00e9s)", "Belo Horizonte, MG", "30140-071", "Brasil"], "crossStreet": "Campus Aimor\u00e9s", "address": "R. Aimor\u00e9s, 1451", "lat": -19.92877199533066, "lng": -43.93794832190694}, "lat": -19.92877199533066, "lng": -43.93794832190694, "checkins": 16175, "id": "4c5b2c9f2815c9281bbbae67"}
{"category": "Neighborhood", "name": "Cai\u00e7ara", "weight": 4.203, "hours": {"start": "0:00:00", "end": "23:59:00"}, "location": {"city": "Belo Horizonte", "cc": "BR", "country": "Brasil", "state": "MG", "formattedAddress": ["Belo Horizonte, MG", "Brasil"], "lat": -19.905694077972573, "lng": -43.977670669555664}, "lat": -19.905694077972573, "lng": -43.977670669555664, "checkins": 15972, "id": "4d602a3fef378cfa76dc79a6"}
{"category": "Street", "rating": 6.3, "name": "Avenida Amazonas", "weight": 4.2, "hours": {"start": "0:00:00", "end": "23:59:00"}, "location": {"city": "Belo Horizonte", "cc": "BR", "country": "Brasil", "state": "MG", "formattedAddress": ["Av. Amazonas", "Belo Horizonte, MG", "Brasil"], "address": "Av. Amazonas", "lat": -19.931678204177324, "lng": -43.986639976501465}, "lat": -19.931678204177324, "lng": -43.986639976501465, "checkins": 15864, "id": "4d4af5389526b60c769087ee"}
{"category": "University", "name": "Uni-BH", "weight": 4.193, "hours": {"start": "0:00:00", "end": "23:59:00"}, "location": {"city": "Belo Horizonte", "cc": "BR", "country": "Brasil", "postalCode": "31110-320", "state": "MG", "formattedAddress": ["R. Diamantina, 567", "Belo Horizonte, MG", "31110-320", "Brasil"], "address": "R. Diamantina, 567", "lat": -19.907386281045987, "lng": -43.942759095689404}, "lat": -19.907386281045987, "lng": -43.942759095689404, "checkins": 15603, "id": "4b10639ef964a520596f23e3"}
{"category": "Gym", "rating": 8.8, "name": "Companhia Athletica", "weight": 4.193, "hours": {"start": "0:00:00", "end": "23:59:00"}, "location": {"city": "Belo Horizonte", "cc": "BR", "country": "Brasil", "postalCode": "30180-111", "state": "MG", "formattedAddress": ["DiamondMall (3\u00b0 Piso)", "Belo Horizonte, MG", "30180-111", "Brasil"], "crossStreet": "3\u00b0 Piso", "address": "DiamondMall", "lat": -19.928299298910424, "lng": -43.946921825408936}, "lat": -19.928299298910424, "lng": -43.946921825408936, "checkins": 15600, "id": "4be8252ec5220f472258a9ca"}
{"category": "Plaza", "rating": 8.6, "name": "Pra\u00e7a Raul Soares", "weight": 4.193, "hours": {"start": "0:00:00", "end": "23:59:00"}, "location": {"city": "Belo Horizonte", "cc": "BR", "country": "Brasil", "postalCode": "30180-030", "state": "MG", "formattedAddress": ["P\u00e7a. Raul Soares", "Belo Horizonte, MG", "30180-030", "Brasil"], "address": "P\u00e7a. Raul Soares", "lat": -19.922761772578585, "lng": -43.94509792327881}, "lat": -19.922761772578585, "lng": -43.94509792327881, "checkins": 15579, "id": "4b72b73cf964a52026852de3"}
{"category": "Street", "rating": 5.3, "name": "Avenida Cristiano Machado", "weight": 4.185, "hours": {"start": "0:00:00", "end": "23:59:00"}, "location": {"city": "Belo Horizonte", "cc": "BR", "country": "Brasil", "state": "MG", "formattedAddress": ["Av. Cristiano Machado", "Belo Horizonte, MG", "Brasil"], "address": "Av. Cristiano Machado", "lat": -19.835971804143988, "lng": -43.93999099731445}, "lat": -19.835971804143988, "lng": -43.93999099731445, "checkins": 15302, "id": "4c66cb81e1da1b8d09ee9bc3"}
{"category": "Hospital", "name": "Hospital Lifecenter", "weight": 4.178, "hours": {"start": "0:00:00", "end": "23:59:00"}, "location": {"city": "Belo Horizonte", "cc": "BR", "country": "Brasil", "postalCode": "30220-060", "state": "MG", "formattedAddress": ["R. Prof. Estev\u00e3o Pinto, 33 (Av. do Contorno)", "Belo Horizonte, MG", "30220-060", "Brasil"], "crossStreet": "Av. do Contorno", "address": "R. Prof. Estev\u00e3o Pinto, 33", "lat": -19.935510904774095, "lng": -43.92480969429016}, "lat": -19.935510904774095, "lng": -43.92480969429016, "checkins": 15082, "id": "4bd848140b779c74f0bb06a0"}
{"category": "Supermarket", "rating": 8.9, "name": "Verdemar", "weight": 4.16, "hours": {"start": "0:00:00", "end": "23:59:00"}, "location": {"city": "Belo Horizonte", "cc": "BR", "country": "Brasil", "postalCode": "30140-093", "state": "MG", "formattedAddress": ["DiamondMall (Piso BG - Loja M1 a M22)", "Belo Horizonte, MG", "30140-093", "Brasil"], "crossStreet": "Piso BG - Loja M1 a M22", "address": "DiamondMall", "lat": -19.927613422751588, "lng": -43.94760847091675}, "lat": -19.927613422751588, "lng": -43.94760847091675, "checkins": 14442, "id": "4bd4c4616f649521ef176eec"}
{"category": "Multiplex", "rating": 7.3, "name": "Cinemark", "weight": 4.158, "hours": {"start": "0:00:00", "end": "23:59:00"}, "location": {"city": "Belo Horizonte", "cc": "BR", "country": "Brasil", "postalCode": "30180-111", "state": "MG", "formattedAddress": ["Diamond Mall (Loja 25, Piso GD)", "Belo Horizonte, MG", "30180-111", "Brasil"], "crossStreet": "Loja 25, Piso GD", "address": "Diamond Mall", "lat": -19.928087, "lng": -43.94733}, "lat": -19.928087, "lng": -43.94733, "checkins": 14399, "id": "4bdcc748c79cc928111f88e9"}
{"category": "University", "name": "Centro Universit\u00e1rio UNA", "weight": 4.151, "hours": {"start": "0:00:00", "end": "23:59:00"}, "location": {"city": "Belo Horizonte", "cc": "BR", "country": "Brasil", "postalCode": "30190-051", "state": "MG", "formattedAddress": ["R. dos Goitacazes 1159 (Campus Barro Preto)", "Belo Horizonte, MG", "30190-051", "Brasil"], "crossStreet": "Campus Barro Preto", "address": "R. dos Goitacazes 1159", "lat": -19.921109403399733, "lng": -43.94760198602262}, "lat": -19.921109403399733, "lng": -43.94760198602262, "checkins": 14167, "id": "4bf6e981c07c9c748e8abbef"}
{"category": "Hospital", "name": "Hospital Mater Dei", "weight": 4.149, "hours": {"start": "0:00:00", "end": "23:59:00"}, "location": {"city": "Belo Horizonte", "cc": "BR", "country": "Brasil", "postalCode": "30140-093", "state": "MG", "formattedAddress": ["R. Gon\u00e7alves Dias, 2700 (R. Mato Grosso)", "Belo Horizonte, MG", "30140-093", "Brasil"], "crossStreet": "R. Mato Grosso", "address": "R. Gon\u00e7alves Dias, 2700", "lat": -19.928047138903928, "lng": -43.94981861114502}, "lat": -19.928047138903928, "lng": -43.94981861114502, "checkins": 14083, "id": "4bb159adf964a520168e3ce3"}
{"category": "Neighborhood", "name": "Santo Agostinho", "weight": 4.149, "hours": {"start": "0:00:00", "end": "23:59:00"}, "location": {"city": "Belo Horizonte", "cc": "BR", "country": "Brasil", "state": "MG", "formattedAddress": ["Belo Horizonte, MG", "Brasil"], "lat": -19.926756073367144, "lng": -43.94981861114502}, "lat": -19.926756073367144, "lng": -43.94981861114502, "checkins": 14083, "id": "4de43108c65b7a3e2144dbcb"}
{"category": "Neighborhood", "name": "Sion", "weight": 4.144, "hours": {"start": "0:00:00", "end": "23:59:00"}, "location": {"city": "Belo Horizonte", "cc": "BR", "country": "Brasil", "state": "MG", "formattedAddress": ["Belo Horizonte, MG", "Brasil"], "lat": -19.950134828877587, "lng": -43.93308162689209}, "lat": -19.950134828877587, "lng": -43.93308162689209, "checkins": 13944, "id": "4e4705cf62845e1d3c9a9015"}
{"category": "Multiplex", "rating": 8.7, "name": "Cineart", "weight": 4.143, "hours": {"start": "0:00:00", "end": "23:59:00"}, "location": {"city": "Belo Horizonte", "cc": "BR", "country": "Brasil", "postalCode": "30260-030", "state": "MG", "formattedAddress": ["Boulevard Shopping", "Belo Horizonte, MG", "30260-030", "Brasil"], "address": "Boulevard Shopping", "lat": -19.920330848200326, "lng": -43.91950964927673}, "lat": -19.920330848200326, "lng": -43.91950964927673, "checkins": 13887, "id": "4cb5be9155af224b7f9f947e"}
{"category": "Coffee Shop", "rating": 9.3, "name": "Caf\u00e9 com Letras", "weight": 4.139, "hours": {"start": "12:00:00", "end": "1 day, 0:00:00"}, "location": {"city": "Belo Horizonte", "cc": "BR", "country": "Brasil", "postalCode": "30112-010", "state": "MG", "formattedAddress": ["R. Ant\u00f4nio de Albuquerque, 781", "Belo Horizonte, MG", "30112-010", "Brasil"], "address": "R. Ant\u00f4nio de Albuquerque, 781", "lat": -19.937689451032885, "lng": -43.9379096031189}, "lat": -19.937689451032885, "lng": -43.9379096031189, "checkins": 13757, "id": "4b4bf5a4f964a5202eac26e3"}
{"category": "College Academic Building", "name": "Instituto Metodista Izabela Hendrix", "weight": 4.135, "hours": {"start": "7:00:00", "end": "23:00:00"}, "location": {"city": "Belo Horizonte", "cc": "BR", "country": "Brasil", "postalCode": "30160-010", "state": "MG", "formattedAddress": ["R. da Bahia, 2020 (Rua Alvarenga Peixoto)", "Belo Horizonte, MG", "30160-010", "Brasil"], "crossStreet": "Rua Alvarenga Peixoto", "address": "R. da Bahia, 2020", "lat": -19.932686818611984, "lng": -43.94024848937988}, "lat": -19.932686818611984, "lng": -43.94024848937988, "checkins": 13656, "id": "4bd181c977b29c74e2a88c82"}
{"category": "Baiano Restaurant", "rating": 8.3, "name": "Baiana do Acaraj\u00e9", "weight": 4.135, "hours": {"start": "18:00:00", "end": "1 day, 0:00:00"}, "location": {"city": "Belo Horizonte", "cc": "BR", "country": "Brasil", "postalCode": "30112-010", "state": "MG", "formattedAddress": ["R. Ant\u00f4nio de Albuquerque, 440 (Av. Get\u00falio Vargas)", "Belo Horizonte, MG", "30112-010", "Brasil"], "crossStreet": "Av. Get\u00falio Vargas", "address": "R. Ant\u00f4nio de Albuquerque, 440", "lat": -19.938359449114316, "lng": -43.93460890736772}, "lat": -19.938359449114316, "lng": -43.93460890736772, "checkins": 13655, "id": "4b697065f964a52061a22be3"}
